{
  "stores": [
    {
      "id": 1,
      "name": "YIBO.VN Quận 1",
      "image": "bg_post1",
      "priceRange": "350,000 - 690,000 VND",
      "address": "123 Nguyễn Huệ, Phường Bến Nghé, Quận 1",
      "district": "Quận 1",
      "distance": "1.2 km",
      "rating": 4.8,
      "latitude": 10.7756,
      "longitude": 106.7019,
      "phone": "028 3829 5555",
      "services": ["wash", "iron", "dry_clean"]
    },
    {
      "id": 2,
      "name": "YIBO.VN Quận 1",
      "image": "bg_post2",
      "priceRange": "460,000 - 805,000 VND",
      "address": "45 Lê Lợi, Phường Bến Thành, Quận 1",
      "district": "Quận 1",
      "distance": "1.5 km",
      "rating": 4.6,
      "latitude": 10.7727,
      "longitude": 106.698,
      "phone": "028 3823 6789",
      "services": ["wash", "iron"]
    },
    {
      "id": 3,
      "name": "YIBO.VN Quận 2",
      "image": "bg_post3",
      "priceRange": "230,000 - 575,000 VND",
      "address": "78 Đường Số 2, Phường Thảo Điền, Quận 2",
      "district": "Quận 2",
      "distance": "2.3 km",
      "rating": 4.5,
      "latitude": 10.803,
      "longitude": 106.737,
      "phone": "028 3744 5678",
      "services": ["wash", "iron", "express"]
    },
    {
      "id": 4,
      "name": "YIBO.VN Thủ Đức",
      "image": "bg_post1",
      "priceRange": "276,000 - 644,000 VND",
      "address": "156 Võ Văn Ngân, Phường Linh Chiểu, Thủ Đức",
      "district": "Thủ Đức",
      "distance": "3.1 km",
      "rating": 4.7,
      "latitude": 10.8506,
      "longitude": 106.7719,
      "phone": "028 3897 1234",
      "services": ["wash", "iron", "dry_clean"]
    },
    {
      "id": 5,
      "name": "YIBO.VN Quận 3",
      "image": "bg_post2",
      "priceRange": "414,000 - 736,000 VND",
      "address": "89 Võ Thị Sáu, Phường 7, Quận 3",
      "district": "Quận 3",
      "distance": "1.8 km",
      "rating": 4.9,
      "latitude": 10.7823,
      "longitude": 106.6908,
      "phone": "028 3930 8888",
      "services": ["wash", "iron", "dry_clean", "express"]
    },
    {
      "id": 6,
      "name": "YIBO.VN Bình Thạnh",
      "image": "bg_post3",
      "priceRange": "350,000 - 690,000 VND",
      "address": "234 Xô Viết Nghệ Tĩnh, Phường 21, Bình Thạnh",
      "district": "Bình Thạnh",
      "distance": "2.5 km",
      "rating": 4.6,
      "latitude": 10.8099,
      "longitude": 106.7128,
      "phone": "028 3512 3456",
      "services": ["wash", "iron"]
    },
    {
      "id": 7,
      "name": "YIBO.VN Tân Bình",
      "image": "bg_post1",
      "priceRange": "460,000 - 920,000 VND",
      "address": "567 Cộng Hòa, Phường 13, Tân Bình",
      "district": "Tân Bình",
      "distance": "3.2 km",
      "rating": 4.7,
      "latitude": 10.8006,
      "longitude": 106.6365,
      "phone": "028 3997 7777",
      "services": ["wash", "iron", "express", "pickup"]
    },
    {
      "id": 8,
      "name": "YIBO.VN Phú Nhuận",
      "image": "bg_post2",
      "priceRange": "322,000 - 644,000 VND",
      "address": "123 Phan Đăng Lưu, Phường 5, Phú Nhuận",
      "district": "Phú Nhuận",
      "distance": "2.1 km",
      "rating": 4.5,
      "latitude": 10.7984,
      "longitude": 106.6791,
      "phone": "028 3999 5432",
      "services": ["wash", "iron", "dry_clean"]
    },
    {
      "id": 9,
      "name": "YIBO.VN Tân Phú",
      "image": "bg_post3",
      "priceRange": "276,000 - 598,000 VND",
      "address": "456 Lũy Bán Bích, Phường Tân Thành, Tân Phú",
      "district": "Tân Phú",
      "distance": "4.0 km",
      "rating": 4.4,
      "latitude": 10.7953,
      "longitude": 106.6254,
      "phone": "028 3865 2345",
      "services": ["wash", "iron", "express"]
    },
    {
      "id": 10,
      "name": "YIBO.VN Quận 5",
      "image": "bg_post1",
      "priceRange": "414,000 - 805,000 VND",
      "address": "789 Trần Hưng Đạo, Phường 2, Quận 5",
      "district": "Quận 5",
      "distance": "2.8 km",
      "rating": 4.8,
      "latitude": 10.7552,
      "longitude": 106.6779,
      "phone": "028 3923 9999",
      "services": ["wash", "iron", "dry_clean", "pickup"]
    },
    {
      "id": 11,
      "name": "YIBO.VN Quận 6",
      "image": "bg_post2",
      "priceRange": "230,000 - 506,000 VND",
      "address": "234 Hậu Giang, Phường 5, Quận 6",
      "district": "Quận 6",
      "distance": "3.5 km",
      "rating": 4.3,
      "latitude": 10.7469,
      "longitude": 106.6343,
      "phone": "028 3755 4321",
      "services": ["wash", "iron"]
    },
    {
      "id": 12,
      "name": "YIBO.VN Quận 7",
      "image": "bg_post3",
      "priceRange": "575,000 - 1,035,000 VND",
      "address": "567 Nguyễn Thị Thập, Phường Tân Phú, Quận 7",
      "district": "Quận 7",
      "distance": "5.2 km",
      "rating": 4.9,
      "latitude": 10.7311,
      "longitude": 106.7218,
      "phone": "028 5412 8888",
      "services": ["wash", "iron", "dry_clean", "express", "pickup"]
    },
    {
      "id": 13,
      "name": "YIBO.VN Quận 8",
      "image": "bg_post1",
      "priceRange": "253,000 - 552,000 VND",
      "address": "123 Phạm Thế Hiển, Phường 4, Quận 8",
      "district": "Quận 8",
      "distance": "4.8 km",
      "rating": 4.2,
      "latitude": 10.7388,
      "longitude": 106.6292,
      "phone": "028 3850 6543",
      "services": ["wash", "iron"]
    },
    {
      "id": 14,
      "name": "YIBO.VN Quận 10",
      "image": "bg_post2",
      "priceRange": "368,000 - 690,000 VND",
      "address": "456 3 Tháng 2, Phường 11, Quận 10",
      "district": "Quận 10",
      "distance": "2.3 km",
      "rating": 4.6,
      "latitude": 10.7726,
      "longitude": 106.6677,
      "phone": "028 3862 7890",
      "services": ["wash", "iron", "dry_clean"]
    },
    {
      "id": 15,
      "name": "YIBO.VN Quận 11",
      "image": "bg_post3",
      "priceRange": "299,000 - 621,000 VND",
      "address": "789 Lạc Long Quân, Phường 5, Quận 11",
      "district": "Quận 11",
      "distance": "3.3 km",
      "rating": 4.5,
      "latitude": 10.7631,
      "longitude": 106.6254,
      "phone": "028 3865 5432",
      "services": ["wash", "iron", "express"]
    },
    {
      "id": 16,
      "name": "YIBO.VN Gò Vấp",
      "image": "bg_post1",
      "priceRange": "322,000 - 644,000 VND",
      "address": "234 Quang Trung, Phường 10, Gò Vấp",
      "district": "Gò Vấp",
      "distance": "4.5 km",
      "rating": 4.7,
      "latitude": 10.8399,
      "longitude": 106.6778,
      "phone": "028 3894 3210",
      "services": ["wash", "iron", "dry_clean"]
    },
    {
      "id": 17,
      "name": "YIBO.VN Quận 12",
      "image": "bg_post2",
      "priceRange": "230,000 - 460,000 VND",
      "address": "567 Tô Ký, Phường Tân Chánh Hiệp, Quận 12",
      "district": "Quận 12",
      "distance": "6.0 km",
      "rating": 4.1,
      "latitude": 10.8682,
      "longitude": 106.6247,
      "phone": "028 3715 9876",
      "services": ["wash", "iron"]
    },
    {
      "id": 18,
      "name": "YIBO.VN Bình Tân",
      "image": "bg_post3",
      "priceRange": "$12-$25",
      "address": "123 Kinh Dương Vương, Phường An Lạc, Bình Tân",
      "district": "Bình Tân",
      "distance": "5.5 km",
      "rating": 4.4,
      "latitude": 10.739,
      "longitude": 106.609,
      "phone": "028 3755 6789",
      "services": ["wash", "iron", "express"]
    },
    {
      "id": 19,
      "name": "YIBO.VN Quận 7",
      "image": "bg_post1",
      "priceRange": "345,000 - 736,000 VND",
      "address": "456 Nguyễn Văn Linh, Phường Tân Thuận Đông, Quận 7",
      "district": "Quận 7",
      "distance": "4.9 km",
      "rating": 4.8,
      "latitude": 10.7213,
      "longitude": 106.7087,
      "phone": "028 5410 7654",
      "services": ["wash", "iron", "dry_clean", "pickup"]
    },
    {
      "id": 20,
      "name": "YIBO.VN Hóc Môn",
      "image": "bg_post2",
      "priceRange": "207,000 - 414,000 VND",
      "address": "789 Pham Văn Đồng, Phường Hóc Môn, Hóc Môn",
      "district": "Hóc Môn",
      "distance": "7.2 km",
      "rating": 4.0,
      "latitude": 10.8829,
      "longitude": 106.5932,
      "phone": "028 3795 4321",
      "services": ["wash", "iron"]
    },
    {
      "id": 21,
      "name": "YIBO.VN Củ Chi",
      "image": "bg_post3",
      "priceRange": "184,000 - 368,000 VND",
      "address": "234 Tỉnh Lộ 8, Thị trấn Củ Chi, Củ Chi",
      "district": "Củ Chi",
      "distance": "8.5 km",
      "rating": 3.9,
      "latitude": 10.9696,
      "longitude": 106.4923,
      "phone": "028 3790 2345",
      "services": ["wash", "iron"]
    },
    {
      "id": 22,
      "name": "YIBO.VN Nhà Bè",
      "image": "bg_post1",
      "priceRange": "253,000 - 529,000 VND",
      "address": "567 Nguyễn Văn Tạo, Phường Nhà Bè, Nhà Bè",
      "district": "Nhà Bè",
      "distance": "6.8 km",
      "rating": 4.2,
      "latitude": 10.7052,
      "longitude": 106.7258,
      "phone": "028 3780 5678",
      "services": ["wash", "iron", "express"]
    },
    {
      "id": 23,
      "name": "YIBO.VN Cần Giờ",
      "image": "bg_post2",
      "priceRange": "230,000 - 460,000 VND",
      "address": "123 Duyên Hải, Thị trấn Cần Thạnh, Cần Giờ",
      "district": "Cần Giờ",
      "distance": "9.5 km",
      "rating": 3.8,
      "latitude": 10.4064,
      "longitude": 106.9532,
      "phone": "028 3874 1234",
      "services": ["wash", "iron"]
    },
    {
      "id": 24,
      "name": "YIBO.VN Thủ Đức",
      "image": "bg_post3",
      "priceRange": "391,000 - 782,000 VND",
      "address": "789 Kha Vạn Cân, Phường Hiệp Bình Chánh, Thủ Đức",
      "district": "Thủ Đức",
      "distance": "3.8 km",
      "rating": 4.7,
      "latitude": 10.8515,
      "longitude": 106.7713,
      "phone": "028 3724 9999",
      "services": ["wash", "iron", "dry_clean", "pickup"]
    },
    {
      "id": 25,
      "name": "YIBO.VN Thủ Đức",
      "image": "bg_post1",
      "priceRange": "506,000 - 966,000 VND",
      "address": "456 Xa Lộ Hà Nội, Phường Thảo Điền, Thủ Đức",
      "district": "Thủ Đức",
      "distance": "4.2 km",
      "rating": 4.9,
      "latitude": 10.8069,
      "longitude": 106.7444,
      "phone": "028 3742 8888",
      "services": ["wash", "iron", "dry_clean", "express", "pickup"]
    },
    {
      "id": 26,
      "name": "YIBO.VN Quận 4",
      "image": "bg_post2",
      "priceRange": "368,000 - 713,000 VND",
      "address": "234 Khánh Hội, Phường 3, Quận 4",
      "district": "Quận 4",
      "distance": "2.6 km",
      "rating": 4.5,
      "latitude": 10.7582,
      "longitude": 106.7013,
      "phone": "028 3940 6789",
      "services": ["wash", "iron", "dry_clean"]
    },
    {
      "id": 27,
      "name": "YIBO.VN Bình Chánh",
      "image": "bg_post3",
      "priceRange": "230,000 - 506,000 VND",
      "address": "567 Nguyễn Hữu Trí, Phường Bình Hưng, Bình Chánh",
      "district": "Bình Chánh",
      "distance": "7.0 km",
      "rating": 4.1,
      "latitude": 10.7362,
      "longitude": 106.5976,
      "phone": "028 3758 3456",
      "services": ["wash", "iron"]
    },
    {
      "id": 28,
      "name": "YIBO.VN Thủ Đức",
      "image": "bg_post1",
      "priceRange": "575,000 - 1,104,000 VND",
      "address": "123 Xuân Thủy, Phường Thảo Điền, Thủ Đức",
      "district": "Thủ Đức",
      "distance": "3.5 km",
      "rating": 5.0,
      "latitude": 10.8047,
      "longitude": 106.7401,
      "phone": "028 3744 9999",
      "services": ["wash", "iron", "dry_clean", "express", "pickup", "delivery"]
    },
    {
      "id": 29,
      "name": "YIBO.VN Quận 1",
      "image": "bg_post2",
      "priceRange": "322,000 - 644,000 VND",
      "address": "789 Pasteur, Phường Bến Nghé, Quận 1",
      "district": "Quận 1",
      "distance": "1.4 km",
      "rating": 4.6,
      "latitude": 10.7806,
      "longitude": 106.6959,
      "phone": "028 3824 5678",
      "services": ["wash", "iron", "express"]
    },
    {
      "id": 30,
      "name": "YIBO.VN Quận 3",
      "image": "bg_post3",
      "priceRange": "437,000 - 828,000 VND",
      "address": "456 Nam Kỳ Khởi Nghĩa, Phường 8, Quận 3",
      "district": "Quận 3",
      "distance": "1.9 km",
      "rating": 4.8,
      "latitude": 10.7781,
      "longitude": 106.6976,
      "phone": "028 3932 7777",
      "services": ["wash", "iron", "dry_clean", "pickup"]
    }
  ]
}
