{
  "workers": [
    {
      "id": "worker_001",
      "name": "Nguyễn Văn A",
      "phone": "0901234567",
      "rating": 4.8,
      "completedOrders": 156,
      "responseTime": "5 phút",
      "location": "Quận 1, TP.HCM",
      "latitude": 10.7769,
      "longitude": 106.7009,
      "district": "Quận 1",
      "city": "TP.HCM",
      "isVerified": true,
      "avatar": "ic_avatar",
      "specialties": ["sneakers", "leather", "high_heels"],
      "experienceYears": 5
    },
    {
      "id": "worker_002",
      "name": "Trần Thị B",
      "phone": "0902345678",
      "rating": 4.9,
      "completedOrders": 203,
      "responseTime": "4 phút",
      "location": "Quận 3, TP.HCM",
      "latitude": 10.783,
      "longitude": 106.695,
      "district": "Quận 3",
      "city": "TP.HCM",
      "isVerified": true,
      "avatar": "ic_avatar",
      "specialties": ["sneakers", "leather"],
      "experienceYears": 7
    },
    {
      "id": "worker_003",
      "name": "Lê Văn C",
      "phone": "0903456789",
      "rating": 4.7,
      "completedOrders": 128,
      "responseTime": "6 phút",
      "location": "Quận 5, TP.HCM",
      "latitude": 10.755,
      "longitude": 106.669,
      "district": "Quận 5",
      "city": "TP.HCM",
      "isVerified": true,
      "avatar": "ic_avatar",
      "specialties": ["high_heels", "leather"],
      "experienceYears": 4
    },
    {
      "id": "worker_004",
      "name": "Phạm Thị D",
      "phone": "0904567890",
      "rating": 4.6,
      "completedOrders": 98,
      "responseTime": "7 phút",
      "location": "Quận 7, TP.HCM",
      "latitude": 10.73,
      "longitude": 106.72,
      "district": "Quận 7",
      "city": "TP.HCM",
      "isVerified": true,
      "avatar": "ic_avatar",
      "specialties": ["sneakers"],
      "experienceYears": 3
    },
    {
      "id": "worker_005",
      "name": "Hoàng Văn E",
      "phone": "0905678901",
      "rating": 5.0,
      "completedOrders": 312,
      "responseTime": "3 phút",
      "location": "Quận 2, TP.HCM",
      "latitude": 10.787,
      "longitude": 106.75,
      "district": "Quận 2",
      "city": "TP.HCM",
      "isVerified": true,
      "avatar": "ic_avatar",
      "specialties": ["sneakers", "leather", "high_heels"],
      "experienceYears": 10
    },
    {
      "id": "worker_006",
      "name": "Võ Thị F",
      "phone": "0906789012",
      "rating": 4.5,
      "completedOrders": 87,
      "responseTime": "8 phút",
      "location": "Quận 10, TP.HCM",
      "latitude": 10.773,
      "longitude": 106.67,
      "district": "Quận 10",
      "city": "TP.HCM",
      "isVerified": false,
      "avatar": "ic_avatar",
      "specialties": ["leather"],
      "experienceYears": 2
    },
    {
      "id": "worker_007",
      "name": "Đặng Văn G",
      "phone": "0907890123",
      "rating": 4.9,
      "completedOrders": 245,
      "responseTime": "4 phút",
      "location": "Quận Bình Thạnh, TP.HCM",
      "latitude": 10.81,
      "longitude": 106.71,
      "district": "Quận Bình Thạnh",
      "city": "TP.HCM",
      "isVerified": true,
      "avatar": "ic_avatar",
      "specialties": ["sneakers", "high_heels"],
      "experienceYears": 6
    },
    {
      "id": "worker_008",
      "name": "Bùi Thị H",
      "phone": "0908901234",
      "rating": 4.7,
      "completedOrders": 167,
      "responseTime": "5 phút",
      "location": "Quận Tân Bình, TP.HCM",
      "latitude": 10.8,
      "longitude": 106.65,
      "district": "Quận Tân Bình",
      "city": "TP.HCM",
      "isVerified": true,
      "avatar": "ic_avatar",
      "specialties": ["sneakers", "leather", "high_heels"],
      "experienceYears": 5
    }
  ]
}
